,City,Cloudiness,Country,Date,Humidity,Lat,Lng,Max Temp,Wind Speed
0,Mundra,1,IN,1561572778,77,22.84,69.73,84.51,16.33
1,Hithadhoo,45,MV,1561572780,72,-0.6,73.08,84.69,9.26
2,Genhe,100,CN,1561572781,92,50.78,121.52,53.55,7.31
3,Esperance,90,AU,1561572782,82,-33.86,121.89,59.0,13.87
4,Sabha,0,LY,1561572784,8,27.03,14.43,100.53,16.15
5,Georgetown,40,GY,1561572785,74,6.8,-58.16,89.6,13.87
6,Lompoc,90,US,1561572565,63,34.64,-120.46,69.01,5.77
7,Vaini,92,IN,1561572787,89,15.34,74.49,78.75,3.49
8,Port Alfred,67,ZA,1561572788,93,-33.59,26.89,59.0,1.01
9,Fort Nelson,75,CA,1561572789,72,58.81,-122.69,62.6,11.41
10,Srednekolymsk,19,RU,1561572791,41,67.46,153.71,51.39,18.1
11,Avarua,25,CK,1561572656,94,-21.21,-159.78,69.8,2.24
12,Aklavik,40,CA,1561572793,66,68.22,-135.01,48.2,4.7
13,Marzuq,87,YE,1561572794,12,14.4,46.47,92.25,10.0
14,Tiksi,0,RU,1561572795,59,71.64,128.87,58.77,8.7
15,Rikitea,73,PF,1561572797,79,-23.12,-134.97,74.25,10.63
16,Rocha,9,UY,1561572798,58,-34.48,-54.34,51.57,9.08
17,Freeport,40,BS,1561572799,66,26.54,-78.7,89.6,11.41
18,East London,20,ZA,1561572800,82,-33.02,27.91,62.6,10.29
19,Lastoursville,61,GA,1561572802,84,-0.81,12.73,74.25,5.23
20,Kalmunai,100,LK,1561572548,72,7.42,81.82,79.11,0.72
21,Esso,92,RU,1561572804,95,55.93,158.7,36.63,5.26
22,Busselton,17,AU,1561572805,49,-33.64,115.35,57.0,32.44
23,Nikolskoye,40,RU,1561572806,55,59.7,30.79,66.2,4.47
24,Barrow,74,AR,1561572808,27,-38.31,-60.23,56.07,25.26
25,Male,57,UA,1561572809,79,50.74,33.7,67.95,6.8
26,Butaritari,90,KI,1561572810,73,3.07,172.79,83.61,15.79
27,Mar del Plata,100,AR,1561572644,46,-46.43,-67.52,48.87,20.98
28,Dingle,95,PH,1561572812,88,11.0,122.67,75.33,5.39
29,Ponta do Sol,25,BR,1561572753,43,-20.63,-46.0,77.85,6.64
30,Punta Arenas,0,CL,1561572815,57,-53.16,-70.91,32.0,10.29
31,Mentougou,0,CN,1561572816,64,39.94,116.09,84.99,4.47
32,Tazovskiy,27,RU,1561572777,65,67.47,78.7,41.31,3.09
33,Hobart,0,AU,1561572818,75,-42.88,147.33,44.6,10.29
34,Sao Filipe,0,CV,1561572819,85,14.9,-24.5,75.15,24.92
35,Tuatapere,47,NZ,1561572699,82,-46.13,167.69,48.0,5.99
36,Mareeba,40,AU,1561572822,77,-16.99,145.42,69.8,13.87
37,Belaya Gora,7,RU,1561572823,33,68.54,146.19,60.03,12.86
38,Castro,75,CL,1561572688,93,-42.48,-73.76,46.4,11.41
39,Atasu,41,KZ,1561572825,58,48.68,71.64,75.15,17.98
40,Talnakh,75,RU,1561572826,65,69.49,88.39,44.6,8.95
41,Ushuaia,75,AR,1561572828,90,-54.81,-68.31,33.8,8.05
42,Sao Joao da Barra,0,BR,1561572829,43,-21.64,-41.05,87.8,6.93
43,Upernavik,7,GL,1561572830,88,72.79,-56.15,33.75,11.95
44,Karatau,0,KZ,1561572831,75,43.18,70.46,77.0,1.01
45,Kande,100,UG,1561572832,98,0.3,32.05,64.89,1.12
46,Moscow,100,RU,1561572787,93,55.75,37.62,61.0,2.24
47,Dikson,100,RU,1561572835,94,73.51,80.55,33.21,16.6
48,Clyde River,40,CA,1561572836,86,70.47,-68.59,39.2,19.46
49,Ulladulla,90,AU,1561572837,100,-35.36,150.48,50.0,6.93
50,Carnarvon,0,ZA,1561572700,29,-30.97,22.13,46.35,7.85
51,Veraval,0,FR,1561572839,58,49.65,0.71,84.0,14.99
52,Khatanga,70,RU,1561572841,59,71.98,102.47,49.95,9.37
53,Mataura,74,NZ,1561572842,82,-46.19,168.86,48.0,5.99
54,Saint-Augustin,75,CA,1561572843,73,45.63,-73.98,82.99,4.7
55,Hofn,0,IS,1561572844,59,64.25,-15.21,60.8,6.93
56,Severo-Kurilsk,99,RU,1561572846,97,50.68,156.12,40.41,7.16
57,Albany,40,US,1561572651,45,42.65,-73.75,86.0,6.93
58,Bredasdorp,0,ZA,1561572848,93,-34.53,20.04,54.0,1.12
59,Dabakala,73,CI,1561572849,80,8.36,-4.43,80.73,4.63
60,Mahebourg,75,MU,1561572851,94,-20.41,57.7,73.4,17.22
61,Kroya,23,ID,1561572852,88,-6.5,108.06,71.37,1.14
62,Ewa Beach,75,US,1561572853,88,21.32,-158.01,75.0,6.93
63,Kruisfontein,96,ZA,1561572854,94,-34.0,24.73,56.61,6.04
64,Verkhnevilyuysk,0,RU,1561572856,94,63.45,120.31,55.17,2.91
65,Bandarbeyla,35,SO,1561572857,58,9.49,50.81,81.63,27.07
66,Inta,87,RU,1561572858,76,66.04,60.13,48.33,4.92
67,Souillac,0,FR,1561572859,35,45.6,-0.6,98.6,11.41
68,Coquimbo,0,CL,1561572860,59,-29.95,-71.34,60.8,6.93
69,Smidovich,100,RU,1561572862,90,48.6,133.81,51.75,12.08
70,Jamestown,0,AU,1561572603,65,-33.21,138.6,52.29,13.67
71,Marale,20,IN,1561572864,69,12.45,77.4,77.0,9.17
72,Los Alamos,7,US,1561572865,12,35.88,-106.3,87.01,13.87
73,Zwedru,100,LR,1561572867,97,6.07,-8.13,72.63,3.36
74,Westerland,90,NL,1561572868,82,52.89,4.93,66.99,12.75
75,Caravelas,7,BR,1561572694,71,-17.73,-39.27,78.93,10.45
76,Tura,78,RU,1561572870,86,64.27,100.22,58.95,1.16
77,Codrington,90,AU,1561572871,93,-28.95,153.24,55.99,5.79
78,Acari,33,BR,1561572873,33,-6.44,-36.64,92.43,15.66
79,Qaanaaq,82,GL,1561572670,76,77.48,-69.36,35.37,2.26
80,Kavaratti,100,IN,1561572875,76,10.57,72.64,83.97,16.02
81,Kuandian,0,CN,1561572876,89,40.73,124.78,55.71,2.28
82,Hermanus,0,ZA,1561572878,93,-34.42,19.24,55.99,1.99
83,Kinsale,75,IE,1561572879,77,51.71,-8.52,69.01,9.17
84,Nikel,0,NO,1561572880,58,69.41,30.21,55.4,10.29
85,Redlands,40,US,1561572881,60,34.06,-117.19,80.01,3.36
86,Bilibino,65,RU,1561572882,55,68.06,166.44,47.97,3.53
87,Hirara,5,JP,1561572884,79,24.8,125.28,82.53,11.61
88,Honningsvag,75,NO,1561572869,81,70.98,25.97,48.2,17.22
89,Bull Savanna,100,JM,1561572886,68,17.89,-77.59,82.17,4.83
90,Tamworth,0,AU,1561572887,93,-31.09,150.93,45.0,6.93
91,Aykhal,0,RU,1561572889,55,65.95,111.51,64.4,4.47
92,Narsaq,75,GL,1561572890,93,60.91,-46.05,51.8,3.36
93,Ternate,97,PH,1561572891,56,14.29,120.72,84.99,4.0
94,Braco do Norte,100,BR,1561572609,97,-28.27,-49.17,48.0,1.74
95,Port Blair,100,IN,1561572893,81,11.67,92.75,83.97,20.87
96,Pyapon,100,MM,1561572895,88,16.29,95.68,78.57,6.64
97,Victoria,75,BN,1561572896,83,5.28,115.24,82.4,2.24
98,Havelock,20,US,1561572897,34,34.88,-76.9,93.99,7.52
99,Erenhot,100,CN,1561572898,29,43.65,111.97,78.39,24.76
100,Blagoyevo,77,RU,1561572900,58,63.37,47.92,53.73,3.65
101,Grand Gaube,75,MU,1561572901,94,-20.01,57.66,73.4,17.22
102,Shelburne,40,CA,1561572903,51,44.08,-80.2,84.0,16.11
103,Kaitangata,63,NZ,1561572880,70,-46.28,169.85,45.0,4.0
104,Bella Union,48,CO,1561572905,50,8.5,-73.35,84.69,2.62
105,Awbari,0,LY,1561572906,8,26.59,12.77,99.09,10.36
106,Gat,0,SN,1561572908,55,14.69,-16.54,86.0,9.17
107,Khorinsk,20,RU,1561572909,94,52.16,109.78,46.17,2.89
108,Bara,100,NG,1561572910,67,10.41,10.6,82.53,10.56
109,Bhindar,40,PK,1561572911,36,32.5,74.45,91.4,13.87
110,Inhambane,20,MZ,1561572912,77,-23.87,35.38,68.0,3.51
111,Atuona,0,PF,1561572914,69,-9.8,-139.03,81.27,17.81
112,Lima,90,PE,1561572682,77,-12.06,-77.04,64.4,5.82
113,Arraial do Cabo,0,BR,1561572916,36,-22.97,-42.02,91.4,5.82
114,Provideniya,100,RU,1561572917,96,64.42,-173.23,44.55,9.62
115,Pisco,20,PE,1561572629,30,-13.71,-76.2,71.6,9.17
116,San Jeronimo,0,PE,1561572920,35,-13.65,-73.37,55.4,6.24
117,Ostrovskoye,85,RU,1561572921,93,57.81,42.24,52.47,1.12
118,Alice Springs,0,AU,1561572922,47,-23.7,133.88,37.4,4.7
119,Shache,64,CN,1561572923,26,38.42,77.24,75.87,6.89
120,Yellowknife,75,CA,1561572924,63,62.45,-114.38,66.2,8.05
121,San Andres,96,PH,1561572926,89,13.32,122.68,77.49,1.97
122,Fairbanks,20,US,1561572927,45,64.84,-147.72,69.01,4.7
123,Grindavik,90,IS,1561572928,100,63.84,-22.43,51.8,17.22
124,Manokwari,100,ID,1561572914,73,-0.87,134.08,74.97,4.25
125,Hokitika,0,NZ,1561572931,66,-42.72,170.96,43.65,4.47
126,New Norfolk,0,AU,1561572932,75,-42.78,147.06,44.6,10.29
127,Tawang,100,BT,1561572933,97,27.59,91.87,56.61,2.75
128,Namibe,51,AO,1561572763,80,-15.19,12.15,66.69,9.26
129,Roseburg,90,US,1561572935,51,43.22,-123.34,68.0,2.37
130,Batemans Bay,22,AU,1561572937,94,-35.71,150.18,48.99,2.98
131,Ribeira Grande,75,PT,1561572938,64,38.52,-28.7,68.0,9.17
132,Esperanza,0,AR,1561572939,23,-31.45,-60.93,62.01,7.0
133,Bata,40,GQ,1561572940,78,1.87,9.77,82.4,13.87
134,Meulaboh,100,ID,1561572942,70,4.14,96.13,83.43,7.16
135,Hilo,90,US,1561572943,88,19.71,-155.08,75.0,8.05
136,Misratah,0,LY,1561572944,86,32.38,15.09,76.95,10.0
137,Coahuayana,25,MX,1561572945,59,18.62,-100.35,89.73,2.15
138,Puerto Escondido,75,MX,1561572946,70,15.86,-97.07,86.0,11.41
139,Alofi,95,NU,1561572948,100,-19.06,-169.92,68.0,4.7
140,Half Moon Bay,75,US,1561572949,68,37.46,-122.43,72.0,11.41
141,Puerto Ayora,20,EC,1561572950,65,-0.74,-90.35,80.6,6.93
142,Puerto Madryn,56,AR,1561572724,34,-42.77,-65.04,57.15,25.39
143,Chapais,90,CA,1561572952,68,49.78,-74.86,69.8,14.99
144,Quatre Cocos,75,MU,1561572954,94,-20.21,57.76,73.4,17.22
145,Urengoy,85,RU,1561572955,60,65.96,78.37,48.87,10.92
146,Bonavista,4,CA,1561572715,84,48.65,-53.11,51.01,1.99
147,Palmer,0,AU,1561572957,47,-34.85,139.16,59.0,19.46
148,Port Macquarie,40,AU,1561572734,100,-31.43,152.91,55.99,5.82
149,Deputatskiy,0,RU,1561572960,51,69.3,139.9,61.47,2.53
150,Kahului,75,US,1561572938,83,20.89,-156.47,78.8,6.93
151,Mandalgovi,17,MN,1561572857,50,45.76,106.27,54.45,17.07
152,Chapleau,75,CA,1561572963,56,47.85,-83.4,73.4,9.17
153,Cape Town,0,ZA,1561572920,93,-33.93,18.42,55.99,3.36
154,Olinda,0,AU,1561572966,70,-37.84,145.39,53.01,10.29
155,Cherskiy,11,RU,1561572967,40,68.75,161.3,56.43,8.37
156,Gombe,100,NG,1561572968,67,10.28,11.16,81.63,10.13
157,Nosy Varika,46,MG,1561572969,94,-20.58,48.53,67.05,8.05
158,Torbay,20,CA,1561572770,62,47.66,-52.73,63.0,11.41
159,Atambua,1,ID,1561572972,68,-9.11,124.89,75.33,14.09
160,Bluff,11,AU,1561572875,86,-23.58,149.07,58.05,17.58
161,Cabo San Lucas,5,MX,1561572772,35,22.89,-109.91,98.01,6.93
162,Lagoa,20,PT,1561572975,82,37.14,-8.45,72.0,12.75
163,Oga,0,IT,1561572976,29,46.46,10.35,82.4,5.82
164,Kapaa,90,US,1561572978,88,22.08,-159.32,77.0,23.04
165,Ust-Maya,47,RU,1561572979,80,60.42,134.54,49.59,1.28
166,Haines Junction,100,CA,1561572980,60,60.75,-137.51,59.13,1.5
167,Troitsko-Pechorsk,77,RU,1561572981,56,62.71,56.19,53.91,4.25
168,Pevek,19,RU,1561572983,79,69.7,170.27,35.55,11.5
169,Las Vegas,20,US,1561572891,13,36.17,-115.15,93.0,11.41
170,Lebu,20,ET,1561572985,63,8.96,38.73,66.2,6.93
171,Nanortalik,100,GL,1561572986,99,60.14,-45.24,41.67,6.96
172,Ostrovnoy,100,RU,1561572734,62,68.05,39.51,56.07,8.5
173,Alencon,0,FR,1561572988,36,48.43,0.08,95.0,10.29
174,Hay River,40,CA,1561572990,51,60.82,-115.79,62.6,3.36
175,Port-Gentil,20,GA,1561572846,74,-0.72,8.78,78.8,10.29
176,Bethel,90,US,1561572992,82,60.79,-161.76,62.6,13.87
177,Ambilobe,35,MG,1561572994,84,-13.19,49.05,73.17,4.76
178,Faanui,33,PF,1561572995,76,-16.48,-151.75,80.19,8.05
179,Nago,0,IT,1561572996,44,45.88,10.89,95.0,3.36
180,Tigil,38,RU,1561572997,87,57.8,158.67,50.13,8.37
181,Warmbad,0,DE,1561572998,43,50.67,13.08,95.0,5.82
182,Namtsy,0,RU,1561573000,87,62.72,129.66,50.0,2.24
183,Axim,90,GH,1561573001,85,4.87,-2.24,77.31,11.63
184,Kawalu,100,ID,1561573002,96,-7.38,108.21,68.13,1.54
185,Rio Gallegos,40,AR,1561572875,74,-51.62,-69.22,35.6,17.22
186,Lakes Entrance,2,AU,1561573005,95,-37.88,147.99,30.99,5.84
187,Karasburg,0,NA,1561573006,15,-28.01,18.75,51.03,8.34
188,Luan,20,CH,1561573007,41,46.36,6.98,91.4,8.05
189,Anadyr,20,RU,1561573008,87,64.73,177.51,46.4,11.18
190,Taoudenni,0,ML,1561572911,4,22.68,-3.98,114.39,10.29
191,Saint George,40,GR,1561573011,45,39.45,22.34,86.0,4.7
192,Santa Maria,0,BR,1561573014,28,-16.02,-48.01,82.4,9.17
193,Debre Birhan,34,ET,1561573015,63,9.68,39.53,57.51,3.91
194,Husavik,0,CA,1561572853,34,50.56,-96.99,77.0,5.01
195,Dunedin,0,NZ,1561573017,57,-45.87,170.5,50.0,3.0
196,Iqaluit,20,CA,1561573018,70,63.75,-68.52,46.4,9.17
197,Nabire,99,ID,1561573020,97,-3.36,135.5,70.47,3.27
198,Kudahuvadhoo,100,MV,1561573021,71,2.67,72.89,84.33,4.81
199,Amealco,90,MX,1561573022,64,20.18,-100.15,71.6,27.51
200,Egvekinot,100,RU,1561573023,78,66.32,-179.17,39.87,15.14
201,Longyearbyen,75,NO,1561573024,65,78.22,15.63,44.6,12.75
202,Puerto El Triunfo,0,SV,1561573026,55,13.27,-88.55,91.4,3.36
203,Farafangana,9,MG,1561573027,96,-22.82,47.83,64.17,5.97
204,Cayenne,38,GF,1561573028,78,4.94,-52.33,80.6,12.75
205,Sindor,70,RU,1561573029,53,62.87,51.9,52.83,0.63
206,Darab,82,IR,1561573031,20,28.75,54.55,80.91,2.28
207,San Francisco,90,US,1561573019,72,37.78,-122.42,68.0,16.11
208,Macau,16,BR,1561573041,71,-5.11,-36.64,82.89,17.11
209,Obera,39,AR,1561573042,46,-27.49,-55.12,56.25,4.14
210,Valdivia,75,CL,1561573044,87,-39.81,-73.25,55.4,8.05
211,Hasaki,0,JP,1561573045,94,35.73,140.83,69.8,5.82
212,Berlevag,75,NO,1561572965,81,70.86,29.09,48.2,14.99
213,Okha,100,RU,1561573047,97,53.59,142.95,41.49,22.77
214,Nuevo Ideal,4,MX,1561573048,23,24.89,-105.07,78.39,8.43
215,Zyryanovsk,0,KZ,1561572758,67,49.74,84.27,49.95,3.91
216,Alexandria,0,RO,1561572985,66,43.97,25.33,78.01,5.19
217,Lewistown,1,US,1561573053,74,40.39,-90.15,89.01,6.93
218,Samarai,88,PG,1561573054,95,-10.62,150.67,74.25,5.01
219,Cidreira,94,BR,1561573055,49,-30.17,-50.22,53.73,7.54
220,Makakilo City,75,US,1561573057,88,21.35,-158.09,75.0,6.93
221,Katsuura,75,JP,1561573058,94,33.93,134.5,73.99,25.28
222,Minab,0,IR,1561573059,49,27.15,57.07,93.2,2.24
223,Eureka,90,US,1561572811,72,40.8,-124.16,60.8,17.22
224,Tuktoyaktuk,90,CA,1561573063,90,69.44,-133.03,37.4,17.22
225,Ihosy,0,MG,1561573064,95,-22.4,46.13,56.07,11.81
226,Moree,0,AU,1561573065,76,-29.46,149.84,50.0,9.17
227,Saint Anthony,1,US,1561573066,35,43.97,-111.68,73.4,6.93
228,Kampene,89,CD,1561573067,70,-3.59,26.67,73.71,1.63
229,Norman Wells,75,CA,1561573069,61,65.28,-126.83,50.0,14.99
230,San Cristobal,75,HN,1561573070,54,14.68,-86.92,82.35,8.84
231,Bambous Virieux,75,MU,1561573071,94,-20.34,57.76,73.4,16.11
232,Yaan,95,NG,1561573072,96,7.38,8.57,73.71,11.41
233,Shu,0,KZ,1561572928,30,43.6,73.76,74.43,5.84
234,Ratnagiri,45,IN,1561572960,82,16.98,73.3,83.79,17.56
235,San Luis,0,AR,1561573077,17,-33.3,-66.34,60.8,14.99
236,Kodiak,1,US,1561573078,54,39.95,-94.76,81.0,6.93
237,Pitimbu,15,BR,1561573079,83,-7.47,-34.81,78.57,9.13
238,Santa Barbara,90,US,1561573080,77,34.42,-119.7,66.2,5.82
239,Ponta Delgada,20,PT,1561573082,63,37.73,-25.67,66.2,17.22
240,Cap Malheureux,75,MU,1561573083,94,-19.98,57.61,73.4,16.11
241,Thompson,90,CA,1561573084,87,55.74,-97.86,55.4,4.7
242,The Valley,20,AI,1561572867,66,18.22,-63.06,89.6,12.75
243,Warangal,63,IN,1561573087,63,17.99,79.6,85.59,8.08
244,Yulara,0,AU,1561573088,48,-25.24,130.99,39.2,5.82
245,Khani,75,GE,1561573089,83,41.96,42.96,78.8,6.93
246,Basco,1,US,1561573090,58,40.33,-91.2,89.01,9.17
247,Voskresenskoye,95,RU,1561573092,98,56.84,45.43,52.11,5.17
248,Pangnirtung,20,CA,1561573093,75,66.15,-65.72,44.6,11.41
249,Chokurdakh,17,RU,1561573094,41,70.62,147.9,57.69,12.8
250,Port Elizabeth,1,US,1561573096,40,39.31,-74.98,91.0,6.93
251,Marawi,100,PH,1561573097,95,8.0,124.29,75.0,3.0
252,Plastun,100,RU,1561573098,99,44.76,136.29,50.85,3.96
253,Rome,0,IT,1561573006,45,41.89,12.48,91.4,2.24
254,Nishihara,75,JP,1561573101,78,35.74,139.53,78.01,13.87
255,Mecca,0,SA,1561572981,39,21.43,39.83,89.55,3.38
256,San Pedro de Ycuamandiyu,22,PY,1561573104,54,-24.09,-57.08,66.51,1.03
257,Tazmalt,20,DZ,1561573105,83,36.39,4.4,78.8,12.75
258,Kabo,53,CF,1561573106,90,7.69,18.62,72.81,2.59
259,Teya,75,MX,1561573107,47,21.05,-89.07,95.0,16.11
260,Katobu,12,ID,1561573109,87,-4.94,122.53,72.63,3.76
261,Comodoro Rivadavia,0,AR,1561573110,50,-45.87,-67.48,51.8,32.21
262,Saint-Philippe,40,CA,1561573111,65,45.36,-73.48,82.99,6.93
263,Leningradskiy,47,RU,1561573112,88,69.38,178.42,35.73,11.36
264,Bathsheba,75,BB,1561572870,66,13.22,-59.52,86.0,20.8
265,Biaora,71,IN,1561573115,62,23.92,76.91,85.95,12.93
266,Ilebo,66,CD,1561573116,46,-4.33,20.59,77.31,1.39
267,Luwuk,97,ID,1561573117,98,-0.95,122.79,64.71,4.14
268,Kavieng,91,PG,1561573118,75,-2.57,150.8,84.33,9.84
269,Kimbe,97,PG,1561573120,94,-5.56,150.15,73.35,2.75
270,Wattegama,98,LK,1561573121,85,7.35,80.68,74.43,4.7
271,Izhmorskiy,0,RU,1561573122,91,56.19,86.64,57.33,4.47
272,Iranduba,40,BR,1561573123,66,-3.28,-60.19,86.0,5.82
273,Itoman,20,JP,1561573124,94,26.12,127.67,78.8,2.24
274,Itarema,3,BR,1561573126,59,-2.92,-39.92,86.13,11.18
275,Westport,1,US,1561573127,45,41.14,-73.36,87.01,6.93
276,Port Hardy,75,CA,1561573111,93,50.7,-127.42,53.6,6.93
277,Guerrero Negro,100,MX,1561572865,82,27.97,-114.04,62.73,7.67
278,Pauini,14,BR,1561573130,46,-7.71,-67.0,91.35,1.68
279,Sorland,75,NO,1561572870,100,67.67,12.69,48.2,16.11
280,Rorvik,75,NO,1561573097,81,64.86,11.24,51.8,13.87
281,Bowen,40,AU,1561573134,88,-20.01,148.25,66.0,13.87
282,Medicine Hat,20,CA,1561573135,49,50.04,-110.68,70.0,3.36
283,Saldanha,40,PT,1561573136,40,41.42,-6.55,78.39,9.19
284,Ukiah,90,US,1561573128,55,39.15,-123.21,72.0,5.82
285,Mancora,0,PE,1561573138,290,-4.1,-81.05,62.6,24.16
286,Huarmey,99,PE,1561573140,83,-10.07,-78.15,63.63,11.3
287,Prince George,1,CA,1561573046,72,53.92,-122.75,69.01,4.7
288,Idrinskoye,100,RU,1561573142,98,54.37,92.14,53.55,2.91
289,Hovd,75,NO,1561573143,71,63.83,10.7,55.0,18.34
290,Saskylakh,100,RU,1561573144,69,71.97,114.09,63.99,12.91
291,Ust-Tsilma,83,RU,1561573146,59,65.44,52.15,54.63,3.47
292,Airai,0,TL,1561573136,70,-8.93,125.41,65.79,5.59
293,Opuwo,51,NA,1561573148,43,-18.06,13.84,60.21,9.42
294,Isangel,79,VU,1561573149,84,-19.55,169.27,75.51,13.02
295,Gillette,1,US,1561573151,56,44.29,-105.5,75.0,5.82
296,Saint-Joseph,0,FR,1561573128,38,43.56,6.97,93.2,4.16
297,Brae,100,GB,1561572872,100,60.4,-1.35,51.8,13.87
298,Ahipara,37,NZ,1561573154,68,-35.17,173.16,55.89,12.91
299,Praia da Vitoria,40,PT,1561573155,72,38.73,-27.07,70.0,12.95
300,La Ronge,75,CA,1561573156,71,55.1,-105.3,57.2,6.93
301,Uruacu,0,BR,1561573158,30,-14.52,-49.14,87.03,6.58
302,Krasnoarmeysk,100,RU,1561573159,93,56.12,38.15,61.0,2.24
303,Pyshchug,90,RU,1561573160,92,58.89,45.71,49.77,3.4
304,Barabash,90,RU,1561573161,100,43.19,131.5,64.4,8.95
305,Arilje,0,RS,1561573163,73,43.75,20.1,82.4,3.36
306,Whitehorse,75,CA,1561573082,72,60.72,-135.06,64.0,3.36
307,Xai-Xai,0,MZ,1561573165,87,-25.04,33.64,62.19,2.46
308,Mehamn,75,NO,1561573166,81,71.03,27.85,48.2,14.99
309,Saquena,0,PE,1561573167,57,-4.67,-73.52,89.19,1.57
310,Ambon,0,FR,1561573168,55,47.55,-2.56,93.2,9.17
311,Japura,31,ID,1561573170,94,-0.42,102.29,74.61,1.97
312,Poum,75,MK,1561573171,50,41.28,20.71,75.2,10.29
313,Porto Novo,40,BR,1561573172,28,-23.68,-45.44,86.0,12.75
314,Beringovskiy,100,RU,1561573173,96,63.05,179.32,42.03,7.85
315,Gravdal,75,NO,1561573175,76,59.79,5.78,55.99,17.22
316,Zalantun,100,CN,1561573176,97,48.0,122.72,60.21,4.16
317,Vallenar,0,CL,1561573117,38,-28.58,-70.76,67.05,7.87
318,Payakumbuh,16,ID,1561573178,98,-0.23,100.63,67.05,3.51
319,Kantabanji,19,IN,1561573179,66,20.47,82.92,82.89,6.08
320,Hyeres,0,FR,1561573181,43,43.12,6.14,93.2,4.7
321,Arman,0,RU,1561573182,70,59.7,150.17,50.13,7.36
322,Hambantota,99,LK,1561573183,80,6.12,81.12,82.53,19.6
323,Avera,1,US,1561573184,45,33.19,-82.53,87.8,3.36
324,Cleethorpes,20,GB,1561573185,87,53.56,-0.03,55.99,16.11
325,Constitucion,20,MX,1561573187,24,23.99,-104.67,81.0,5.82
326,Chekhov,20,RU,1561573188,87,55.14,37.45,61.0,4.47
327,Duliby,7,UA,1561573189,82,51.08,24.4,76.59,5.95
328,Sungaipenuh,38,ID,1561573190,95,-2.08,101.38,72.45,2.95
329,Taihe,56,CN,1561573192,91,26.8,114.92,74.61,0.29
330,Belyy Yar,0,RU,1561573193,77,53.6,91.39,60.8,1.28
331,Nouakchott,0,MR,1561573194,41,18.08,-15.98,91.4,16.11
332,Ancud,75,CL,1561573195,93,-41.87,-73.83,46.4,11.41
333,Lokosovo,100,RU,1561573197,91,61.13,74.84,48.87,19.8
334,Moa,7,CU,1561573198,49,20.66,-74.95,88.65,7.02
335,Contai,85,IN,1561573199,71,21.78,87.75,86.31,17.72
336,Tevaitoa,4,PF,1561573200,76,-16.78,-151.5,79.83,6.55
337,Vestmannaeyjar,90,IS,1561573202,100,63.44,-20.27,51.8,17.22
338,Wembley,75,CA,1561573203,77,55.15,-119.14,60.8,2.24
339,Cockburn Town,72,TC,1561573191,80,21.46,-71.14,81.81,12.75
340,Kloulklubed,75,PW,1561573205,88,7.04,134.26,78.8,6.93
341,Siaya,75,KE,1561573206,88,0.06,34.29,68.0,3.36
342,Timbuktu,0,ML,1561573207,12,16.77,-3.01,109.35,5.01
343,Luderitz,26,NA,1561573209,76,-26.65,15.16,57.2,3.36
344,Saint-Pierre,20,FR,1561573211,46,48.95,4.24,95.0,10.29
345,Dunmore Town,0,BS,1561573212,63,25.5,-76.65,85.23,4.65
346,Nivala,99,FI,1561573213,86,63.93,24.96,55.0,1.99
347,Nouadhibou,0,MR,1561573214,57,20.93,-17.03,78.8,23.04
348,Rio Grande,0,BR,1561573216,35,-32.03,-52.1,57.2,9.17
349,Aswan,0,EG,1561573217,11,24.09,32.9,111.2,6.93
350,Malinovoye Ozero,0,RU,1561573218,57,51.68,79.77,66.33,18.05
351,Dwarka,0,IN,1561573219,44,28.58,77.04,99.0,8.05
352,Rawson,38,AR,1561573057,40,-43.3,-65.11,53.37,27.87
353,Parker,75,US,1561573222,54,43.4,-97.14,82.99,4.7
354,Stoughton,1,CA,1561573223,43,49.68,-103.03,75.0,3.36
355,Parabel,89,RU,1561573224,80,58.71,81.5,65.79,14.9
356,Vila Franca do Campo,20,PT,1561573225,63,37.72,-25.43,66.2,17.22
357,Urusha,55,RU,1561573227,89,54.05,122.9,51.75,3.71
358,Krasnovishersk,37,RU,1561573228,67,60.4,57.08,50.13,4.25
359,College,1,US,1561573229,30,64.86,-147.8,69.01,9.17
360,Vila Velha,20,BR,1561573188,58,-3.71,-38.6,86.0,20.8
361,Natal,40,BR,1561573230,62,-5.81,-35.21,84.2,18.34
362,Tasiilaq,90,GL,1561573232,87,65.61,-37.64,42.8,4.7
363,Fortuna,75,US,1561573234,67,40.6,-124.16,61.0,6.93
364,Sola,100,TZ,1561573235,68,-3.17,33.8,72.81,1.88
365,Bonthe,96,SL,1561573236,85,7.53,-12.5,79.83,9.35
366,Klyuchi,0,RU,1561573196,50,52.25,79.17,67.05,15.37
367,Payo,20,ID,1561573239,90,-3.75,103.64,67.77,3.27
368,Mpika,0,ZM,1561573240,55,-11.84,31.4,60.57,8.59
369,Kabompo,0,ZM,1561573241,47,-13.6,24.21,60.93,3.91
370,Zaranj,0,AF,1561573242,24,30.95,61.86,89.6,20.8
371,Vuktyl,38,RU,1561573243,61,63.86,57.31,51.39,4.47
372,Elat,100,CM,1561573245,98,2.91,11.16,66.87,5.37
373,Platteville,40,US,1561573206,39,42.73,-90.48,86.0,3.36
374,Khandbari,98,NP,1561573247,92,27.38,87.21,58.41,3.98
375,Moron,100,HT,1561573248,71,18.56,-74.26,82.53,1.83
376,Karpogory,14,RU,1561573250,59,64.0,44.44,55.17,4.72
377,Karakol,15,KG,1561573018,51,42.49,78.39,57.15,2.66
378,Dickinson,1,US,1561572981,47,46.88,-102.79,78.01,4.7
379,Saint-Georges,76,CA,1561573253,71,46.12,-70.67,77.0,3.0
380,Scarborough,14,GB,1561573255,82,54.28,-0.41,57.99,6.93
381,Jumla,0,NP,1561573256,93,29.28,82.18,51.93,3.33
382,Mokhsogollokh,22,RU,1561573257,89,61.4,128.95,49.59,0.69
383,Budisov nad Budisovkou,0,CZ,1561573258,55,49.8,17.63,87.01,9.17
384,Vila,0,IT,1561573144,46,45.18,8.4,93.2,6.93
385,Jati,0,PK,1561573261,80,24.35,68.27,84.15,15.75
386,Hammerfest,0,NO,1561573262,81,70.66,23.68,48.2,10.29
387,Prainha,93,BR,1561573263,83,-1.8,-53.48,82.35,4.29
388,Kysyl-Syr,28,RU,1561573264,87,63.9,122.77,56.25,3.76
389,Aksarka,59,RU,1561573265,80,66.56,67.8,44.19,5.57
390,Cabedelo,3,BR,1561573222,76,-6.97,-34.84,80.37,12.15
391,Orlik,0,PL,1561573268,48,53.95,17.74,84.0,11.41
392,Vao,77,EE,1561573269,87,59.1,26.19,58.77,4.47
393,Lujan,100,AR,1561573270,46,-46.57,-67.67,48.87,20.98
394,Voznesenye,15,RU,1561573271,64,61.02,35.48,56.79,4.09
395,Dong Hoi,73,VN,1561573273,67,17.48,106.6,84.51,9.8
396,Raudeberg,75,NO,1561573274,71,61.99,5.14,55.4,12.75
397,Pinega,65,RU,1561573275,71,64.7,43.39,56.61,4.81
398,Santa Marta,20,CO,1561573098,66,11.24,-74.21,89.6,9.17
399,Hamilton,40,CA,1561573036,51,43.26,-79.87,84.99,16.11
400,Pitkyaranta,38,RU,1561573279,86,61.57,31.48,53.01,8.84
401,Khudumelapye,25,BW,1561573280,57,-23.91,24.95,61.11,15.97
402,Yumen,86,CN,1561573281,28,40.29,97.04,71.55,15.41
403,Kiama,90,AU,1561573283,100,-34.67,150.86,55.0,6.93
404,Tayoltita,0,MX,1561573284,31,24.11,-105.93,89.19,7.61
405,Toyooka,100,JP,1561573285,97,35.55,134.82,67.77,5.23
406,Kantilo,20,IN,1561573286,83,20.35,85.18,84.2,6.93
407,Zhanaozen,50,KZ,1561573287,37,43.35,52.85,83.97,14.85
408,Qasigiannguit,20,GL,1561573289,81,68.82,-51.19,44.6,9.17
409,Fomboni,58,KM,1561573290,75,-12.28,43.74,77.31,18.84
410,Naerbo,40,NO,1561573291,66,58.67,5.65,55.4,21.92
411,Chandbali,49,IN,1561573292,70,20.77,86.74,86.13,12.77
412,Izhma,70,RU,1561573293,56,65.01,53.91,54.09,4.34
413,Te Anau,33,NZ,1561573295,86,-45.41,167.72,42.75,1.54
414,Guarenas,40,VE,1561573296,83,10.48,-66.6,82.4,3.36
415,Shubarkuduk,25,KZ,1561573297,47,49.15,56.49,66.33,10.27
416,Tautira,75,PF,1561573224,74,-17.73,-149.15,80.6,8.05
417,Chara,40,GR,1561573300,45,39.42,22.43,86.0,4.7
418,Sargatskoye,71,RU,1561573301,77,55.6,73.49,50.31,11.5
419,Flin Flon,75,CA,1561573302,67,54.77,-101.88,60.8,5.82
420,Passo Fundo,75,BR,1561573297,62,-28.26,-52.41,57.2,11.41
421,Okhotsk,83,RU,1561573304,67,59.36,143.24,54.09,11.72
422,Susanville,1,US,1561573281,27,40.42,-120.65,70.0,17.22
423,Tinskoy,56,RU,1561573307,74,56.15,96.92,62.73,6.35
424,Chuy,2,UY,1561573308,54,-33.69,-53.46,51.75,9.57
425,Hami,33,CN,1561573309,17,42.84,93.51,71.73,14.58
426,Nadym,99,RU,1561573162,61,65.53,72.51,47.61,9.19
427,Miranda,69,BR,1561573311,53,-20.24,-56.38,74.07,4.61
428,Meghri,0,AM,1561573313,46,38.9,46.25,66.15,11.52
429,Shiyan,82,CN,1561573314,77,32.65,110.78,70.47,0.74
430,Hobyo,84,SO,1561573315,71,5.35,48.53,78.21,27.56
431,Lethem,32,GY,1561573316,51,3.38,-59.8,89.91,15.19
432,Volary,30,CZ,1561573318,49,48.91,13.89,91.0,1.99
433,Quzhou,0,CN,1561573319,95,28.97,118.86,70.65,0.94
434,Khandyga,40,RU,1561573320,77,62.65,135.58,53.73,4.56
435,Tanushimaru,100,JP,1561573321,88,33.35,130.68,75.2,3.36
436,Suntar,0,RU,1561573322,92,62.16,117.65,56.43,3.04
437,Chabahar,0,IR,1561573324,74,25.29,60.65,87.8,7.23
438,Salym,99,RU,1561573325,88,60.06,71.48,46.53,6.89
439,Tashara,0,RU,1561573326,94,55.52,83.51,58.59,6.8
440,Myrtle Beach,90,US,1561573327,51,33.7,-78.89,91.99,8.05
441,Kabanjahe,72,ID,1561573328,96,3.1,98.49,69.39,1.99
442,Amapa,75,HN,1561573330,88,15.09,-87.97,71.6,9.17
443,Guacimo,40,CO,1561573331,70,8.09,-76.36,86.0,5.82
444,Zhangye,100,CN,1561573332,59,38.94,100.46,56.43,5.55
445,Sambava,0,MG,1561573333,84,-14.27,50.17,67.05,3.56
446,Zhigansk,8,RU,1561573334,78,66.77,123.37,60.03,7.38
447,Puerto Colombia,40,CO,1561573336,55,10.99,-74.96,91.4,4.7
448,Marsa Matruh,0,EG,1561573337,74,31.35,27.25,80.6,9.17
449,Sorong,100,ID,1561573338,90,-0.86,131.25,76.59,7.9
450,Lavrentiya,100,RU,1561573339,98,65.58,-170.99,45.99,7.49
451,Jalu,0,LY,1561573340,29,29.03,21.55,90.63,12.55
452,Shenjiamen,40,CN,1561573342,94,29.96,122.3,72.63,1.48
453,Basoko,99,CD,1561573343,85,1.23,23.61,72.63,0.72
454,Suarez,40,CO,1561573344,62,4.05,-74.83,84.2,9.17
455,San Quintin,96,PH,1561573345,89,17.54,120.52,77.13,2.46
456,Kovrov,100,RU,1561573346,96,56.37,41.31,54.63,5.32
457,Chake Chake,0,TZ,1561573348,80,-5.25,39.77,78.93,22.68
458,Rancho Palos Verdes,90,US,1561573301,72,33.75,-118.37,72.0,6.93
459,Port Hedland,49,AU,1561573350,93,-20.31,118.58,57.2,5.82
460,Komsomolskiy,98,RU,1561573351,86,67.55,63.78,42.75,6.46
461,Mount Gambier,62,AU,1561573106,81,-37.83,140.78,50.0,12.75
462,Nhulunbuy,40,AU,1561573137,93,-12.18,136.78,66.2,2.24
463,Moroni,20,GR,1561573355,74,35.09,24.92,82.0,13.87
464,Zhoucheng,20,CN,1561573157,94,31.35,119.33,71.6,2.24
465,Monte Alegre,79,BR,1561573357,67,-2.0,-54.07,86.49,5.06
466,Los Llanos de Aridane,75,ES,1561573358,64,28.66,-17.92,73.4,14.99
467,Umm Lajj,0,SA,1561573219,69,25.02,37.27,85.59,4.59
468,Miri,71,NG,1561573209,63,10.31,9.75,81.45,4.59
469,Magadan,7,RU,1561573362,68,59.56,150.8,50.49,9.8
470,Maymyo,100,MM,1561573363,70,22.03,96.47,83.79,16.33
471,Biltine,74,TD,1561573364,25,14.53,20.93,97.29,7.11
472,Tongliao,1,CN,1561573365,47,43.61,122.27,74.43,14.54
473,Labuhan,8,ID,1561573367,94,-2.54,115.51,72.63,1.25
474,Gao,27,ML,1561573368,13,16.28,-0.04,106.29,3.13
475,Geraldton,75,CA,1561573369,60,49.72,-86.95,69.8,9.17
476,Cururupu,100,BR,1561573370,74,-1.82,-44.87,82.71,4.59
477,Nayagarh,23,IN,1561573372,78,20.13,85.1,82.89,3.6
478,Ikalamavony,0,MG,1561573373,81,-21.17,46.6,60.75,6.44
479,Saa,99,NG,1561573374,96,7.32,10.08,71.37,4.7
480,Les Cayes,100,HT,1561573375,78,18.19,-73.75,83.07,16.31
481,Oriximina,100,BR,1561573377,54,-1.77,-55.87,89.37,9.1
482,Jining,100,CN,1561573378,51,35.41,116.58,81.0,8.93
483,Pahrump,1,US,1561573309,11,36.21,-115.98,91.0,21.92
484,Waingapu,13,ID,1561573380,81,-9.65,120.26,66.33,9.53
485,Ramsi,100,EE,1561573381,82,58.31,25.54,60.8,6.93
486,Vestmanna,20,FO,1561573383,76,62.16,-7.17,53.6,9.17
487,Sao Felix do Xingu,19,BR,1561573217,42,-6.64,-51.99,90.09,6.51
488,Broome,75,GB,1561573385,87,52.47,1.45,60.01,10.29
489,Acapulco,5,MX,1561573386,55,16.86,-99.88,91.4,8.05
490,Sumenep,5,ID,1561573387,94,-7.02,113.87,72.45,5.48
491,Oyama,75,JP,1561573389,88,36.31,139.8,78.01,3.36
492,Gamba,13,CN,1561573197,68,28.28,88.52,44.19,7.65
493,Buchanan,75,LR,1561573391,94,5.88,-10.05,77.0,13.73
494,Hassleholm,17,SE,1561573392,64,56.16,13.77,72.0,16.11
495,Nelson Bay,0,AU,1561573393,100,-32.72,152.14,55.99,4.7
496,Gornyy,85,RU,1561573395,68,51.76,48.54,59.49,6.67
497,Pucallpa,75,PE,1561573396,66,-8.38,-74.54,86.0,5.82
498,Lee,90,US,1561573397,87,45.36,-68.29,63.0,8.05
499,Touros,40,BR,1561573398,69,-5.2,-35.46,82.4,16.11
500,Broken Hill,0,AU,1561573400,76,-31.97,141.45,48.2,10.29
501,Aksu,75,KZ,1561573401,60,52.04,76.93,71.6,4.47
502,Greystones,20,IE,1561573402,72,53.14,-6.06,62.6,9.17
503,Staryy Nadym,70,RU,1561573268,69,65.61,72.68,44.73,7.23
504,Buala,47,SB,1561573405,81,-8.15,159.59,79.47,5.44
505,Sobolevo,96,RU,1561573406,90,54.43,31.9,67.23,10.27
506,Gari,83,RU,1561573407,62,59.43,62.35,52.83,2.73
507,Wajir,72,KE,1561573408,44,1.75,40.07,84.69,16.42
508,Plettenberg Bay,79,ZA,1561573409,76,-34.05,23.37,54.63,3.13
509,Tateyama,100,JP,1561573411,84,36.66,137.31,73.0,2.37
510,Havoysund,0,NO,1561573171,81,71.0,24.66,48.2,10.29
511,Pochutla,75,MX,1561573181,70,15.74,-96.47,88.0,11.41
512,Delijan,0,IR,1561573414,11,33.99,50.69,87.21,7.63
513,Voyvozh,54,RU,1561573415,61,62.89,54.96,51.39,3.09
514,Ballina,40,IE,1561573417,68,54.11,-9.15,69.01,14.99
515,Dinar,40,TR,1561573418,54,38.07,30.16,79.0,21.92
516,Zeya,7,RU,1561573419,84,53.74,127.27,47.25,2.19
517,Imbituba,75,BR,1561573347,76,-28.24,-48.67,55.4,11.41
518,Lubsko,0,PL,1561573311,28,51.79,14.97,96.8,10.29
519,Agadez,75,NE,1561573423,33,16.97,7.99,91.4,12.75
520,Neryungri,100,RU,1561573424,80,56.66,124.71,49.59,0.81
521,Klaksvik,20,FO,1561573425,76,62.23,-6.59,53.6,9.17
522,Forssa,90,FI,1561573426,100,60.82,23.63,60.01,2.24
523,Ossora,46,RU,1561573428,84,59.24,163.07,46.35,2.08
524,Lorengau,52,PG,1561573429,84,-2.02,147.27,80.01,5.77
525,San Ramon,8,NI,1561573380,58,12.92,-85.84,81.09,11.18
526,Matara,76,BI,1561573432,88,-3.48,29.48,53.73,1.97
527,Kontagora,39,NG,1561573433,69,10.4,5.47,81.81,2.1
528,Ulagan,88,RU,1561573434,87,50.63,87.96,38.07,1.41
529,Limoges,0,FR,1561573435,30,45.84,1.26,99.0,3.36
530,Padang,2,ID,1561573436,74,-0.92,100.36,82.53,4.09
531,Santo Antonio do Ica,83,BR,1561573438,92,-3.1,-67.94,80.73,2.48
532,North Battleford,20,CA,1561573439,59,52.78,-108.3,68.0,2.24
533,Omama,99,JP,1561573440,86,36.43,139.28,69.01,1.01
534,Dubti,73,ET,1561573441,14,11.74,41.09,103.23,11.7
535,Kisaran,74,ID,1561573442,97,2.98,99.62,74.25,1.95
536,Lata,51,IN,1561573444,85,30.78,78.62,40.59,0.45
537,Fuerte Olimpo,54,BR,1561573445,45,-21.04,-57.87,71.91,1.68
538,Isla Mujeres,40,MX,1561573409,66,21.23,-86.73,89.6,9.17
539,Chaman,0,AF,1561573447,7,30.92,66.46,78.75,3.74
540,Ilulissat,20,GL,1561573448,81,69.22,-51.1,44.6,9.17
541,Conceicao do Araguaia,24,BR,1561573450,36,-8.26,-49.26,90.27,3.98
542,Nioro,0,GM,1561573451,21,13.79,-15.05,103.95,14.2
543,Lalitpur,45,IN,1561573452,46,24.69,78.42,91.71,11.59
544,Victor Harbor,0,AU,1561573453,47,-35.55,138.62,59.0,19.46
545,Rrogozhine,40,AL,1561573454,43,41.08,19.67,91.4,4.7
546,Mahajanga,20,MG,1561573456,88,-15.72,46.32,77.0,4.7
547,Biak,97,ID,1561573457,98,-0.91,122.88,64.71,4.14
548,Pecos,1,US,1561573458,26,31.42,-103.49,93.2,12.75
549,Santa Cruz,1,US,1561573162,63,36.97,-122.03,75.0,8.05
550,San Carlos de Bariloche,75,AR,1561573461,94,-41.13,-71.31,41.0,24.16
551,Talcahuano,75,CL,1561573463,87,-36.72,-73.12,55.4,13.87
552,Oktyabrskiy,75,RU,1561573464,93,55.61,37.97,61.0,2.24
553,Taltal,1,CL,1561573465,68,-25.41,-70.49,58.77,5.44
554,Alta Floresta,40,BR,1561573466,32,-9.87,-56.08,95.0,4.7
555,Riyadh,0,SA,1561573266,6,24.63,46.72,100.4,6.93
556,Barra do Bugres,5,BR,1561573469,41,-15.07,-57.19,89.01,3.33
557,Nome,90,US,1561573470,66,30.04,-94.42,91.4,10.29
558,Sinnamary,40,GF,1561573190,83,5.38,-52.96,80.19,17.25
559,Channel-Port aux Basques,100,CA,1561573472,81,47.57,-59.14,49.59,11.52
560,Muscle Shoals,1,US,1561573474,43,34.75,-87.67,90.0,3.4
561,Lafia,100,NG,1561573475,93,8.5,8.51,74.97,6.58
562,Mayumba,76,GA,1561573476,80,-3.44,10.65,74.61,10.33
